[
  {
    "lat": "-33.882217",
    "lng": "151.172559",
    "id": 437030,
    "name": "Annandale Garden Centre",
    "description": "Annandale Garden Centre",
    "address": "34-36 Booth St Annandale NSW 2038",
    "state": "NSW"
  },
  {
    "lat": "-37.7753315",
    "lng": "144.88519910000002",
    "id": 437031,
    "name": "Ascot Vale Garden Centre (03) 9317 7924",
    "description": "Ascot Vale Garden Centre",
    "address": "151 Rosamond Rd, Maribynong",
    "country": "Australia",
    "state": "Victoria",
    "postal": "3032"
  },
  {
    "lat": "-33.764113",
    "lng": "151.2673",
    "id": 437032,
    "name": "Four Seasons",
    "description": "Balcony in Bloom",
    "address": "10 Green St Brookvale NSW 2100",
    "state": "NSW"
  },
  {
    "lat": "-34.961838",
    "lng": "138.608776",
    "id": 437033,
    "name": "Malvern Mitre 10 (08) 8272 8566",
    "address": "321 Unley Rd Malvern SA 5061",
    "state": "SA"
  },
  {
    "lat": "-37.890777",
    "lng": "144.990515",
    "id": 437034,
    "name": "Bayside Flower Garden",
    "description": "Bayside Flower Garden",
    "address": "419-425 St Kilda St Elwood VIC 3184",
    "state": "VIC"
  },
  {
    "lat": "-37.749141",
    "lng": "145.177627",
    "id": 437035,
    "name": "beasleys nursery",
    "description": "beasleys nursery",
    "address": "195 warrandyte rd doncaster east VIC 3109",
    "state": "VIC"
  },
  {
    "lat": "-27.988784",
    "lng": "152.997483",
    "id": 437036,
    "name": "Beaudesert Mitre 10 5541 1888",
    "description": "Beaudesert Mitre 10",
    "address": "24 William Street Beaudesert QLD 4285",
    "state": "QLD"
  },
  {
    "lat": "-34.91223",
    "lng": "150.598128",
    "id": 437037,
    "name": "Bishops",
    "description": "Bishops",
    "address": "21 bellevue st south nowra NSW 2541",
    "state": "NSW"
  },
  {
    "lat": "-33.885374",
    "lng": "150.869832",
    "id": 437038,
    "name": "Bonnyrigg Garden Centre",
    "description": "Bonnyrigg Garden Centre",
    "address": "Cnr Elizabeth Dve and Wilson Rd Bonnyrigg NSW 2177",
    "state": "NSW"
  },
  {
    "lat": "-34.481366",
    "lng": "150.413103",
    "id": 437039,
    "name": "Bowral Co-op",
    "description": "Bowral Co-op",
    "address": "85 Kirkham Rd Bowral NSW 2576",
    "state": "NSW"
  },
  {
    "lat": "-27.437992",
    "lng": "153.023771",
    "id": 437040,
    "name": "bretts Hardware",
    "description": "Bretts Hardware",
    "address": "142 Newmarket Rd Windsor QLD 4030 tel 07 3361 0777",
    "state": "QLD"
  },
  {
    "lat": "-37.760406",
    "lng": "145.079206",
    "id": 437041,
    "name": "Bulleen Art & Garden",
    "description": "Bulleen Art & Garden",
    "address": "6 Manningham Rd West Bulleen VIC 3105",
    "state": "VIC"
  },
  {
    "lat": "-33.469955",
    "lng": "151.396042",
    "id": 437042,
    "name": "Burbank House and Garden",
    "description": "Burbank House and Garden",
    "address": "Lot 1 Empire Bay Dve Kincumber NSW 2251",
    "state": "NSW"
  },
  {
    "lat": "-33.315863",
    "lng": "151.411275",
    "id": 437043,
    "name": "Burbank Nursery",
    "description": "Burbank Nursery",
    "address": "266 Pacific Hway Kangy Angy NSW 2258",
    "state": "NSW"
  },
  {
    "lat": "-34.673288",
    "lng": "150.846686",
    "id": 437045,
    "name": "Burnetts on Barney",
    "description": "Burnetts on Barney",
    "address": "80 Barney st Kiama NSW 2533",
    "state": "NSW"
  },
  {
    "lat": "-33.425229",
    "lng": "151.407385",
    "id": 437046,
    "name": "Bushlands Garden Centre",
    "description": "Bushlands Garden Centre",
    "address": "443 Central Coast Hway Erina Heights NSW 2260",
    "state": "NSW"
  },
  {
    "lat": "-33.233915",
    "lng": "151.497248",
    "id": 437047,
    "name": "Charmhave Garden Centre",
    "description": "Charmhaven Garden Centre",
    "address": "100 Pacific Hway West Charmhaven NSW 2263",
    "state": "NSW"
  },
  {
    "lat": "-37.674543",
    "lng": "145.161786",
    "id": 437049,
    "name": "Diamond Creek Mitre 10",
    "description": "Diamond Creek Mitre 10",
    "address": "95 hurstbridge rd diamond creek VIC 3089",
    "state": "VIC"
  },
  {
    "lat": "-33.709345",
    "lng": "150.375865",
    "id": 437050,
    "name": "Dillingers Nursery",
    "description": "Dillingers Nursery",
    "address": "Foot of Bodington Hill 4 Great Western Hway Wentworth Falls NSW 2782",
    "state": "NSW"
  },
  {
    "lat": "-28.662664",
    "lng": "153.614349",
    "id": 437053,
    "name": "Eden at Byron",
    "description": "Eden at Byron",
    "address": "140 Bangalow Rd Byron Bay NSW 2481",
    "state": "NSW"
  },
  {
    "lat": "-33.780053",
    "lng": "151.133836",
    "id": 437054,
    "name": "Eden Gardens",
    "description": "Eden Gardens",
    "address": "307 Lane Cove Road Macquarie Park NSW 2113",
    "state": "NSW"
  },
  {
    "lat": "-33.890253",
    "lng": "151.091433",
    "id": 437055,
    "name": "Enfield Pet & Garden Supplies",
    "description": "Enfield Pet & Garden Supplies",
    "address": "56 coronation pde Enfield NSW 2136",
    "state": "NSW"
  },
  {
    "lat": "-37.883391",
    "lng": "145.057401",
    "id": 437056,
    "name": "G Store",
    "description": "G Store",
    "address": "1095 Dandenong Rd East Malvern VIC 3145",
    "state": "VIC"
  },
  {
    "lat": "-38.002444",
    "lng": "145.14114",
    "id": 437058,
    "name": "Gardenworld Nursery",
    "description": "Gardenworld Nursery",
    "address": "810 Springvale Rd Braeside VIC 3195",
    "state": "VIC"
  },
  {
    "lat": "-33.768009",
    "lng": "150.622067",
    "id": 437061,
    "name": "Glenbrook Village Nursery",
    "description": "Glenbrook Village Nursery",
    "address": "20 Ross St Glenbrook NSW 2773",
    "state": "NSW"
  },
  {
    "lat": "-34.947243",
    "lng": "138.642509",
    "id": 437062,
    "name": "Glenunga Mitre 10 (08) 8379 9866",
    "description": "Glenunga Mitre 10",
    "address": "499 Portrush rd Glenunga SA 5064",
    "state": "SA"
  },
  {
    "lat": "-27.364373",
    "lng": "153.017763",
    "id": 437063,
    "name": "GreenTrees Plant Nursery",
    "description": "GreenTrees Plant Nursery",
    "address": "Shop 94 Aspley Hypermarket Aspley QLD 4034",
    "state": "QLD"
  },
  {
    "lat": "-37.955214",
    "lng": "145.093829",
    "id": 437064,
    "name": "Grow Master Heatherton",
    "description": "Grow Master Heatherton",
    "address": "142 kingston rd heatherton VIC 3202",
    "state": "VIC"
  },
  {
    "lat": "-33.884415",
    "lng": "151.147933",
    "id": 437065,
    "name": "Hatimi Hardware ThriftyLink",
    "description": "Hatimi Hardware ThriftyLink",
    "address": "Shop 3 196 Marion St Leichhardt NSW 2040",
    "state": "NSW"
  },
  {
    "lat": "-27.422118",
    "lng": "153.063789",
    "id": 437066,
    "name": "Hendra True Value Hardware",
    "description": "Hendra True Value Hardware",
    "address": "23 Zillman Rd Hendra QLD 4011",
    "state": "QLD"
  },
  {
    "lat": "-32.780444",
    "lng": "151.617665",
    "id": 437067,
    "name": "Heritage Gardens Nursery",
    "description": "Heritage Gardens Nursery",
    "address": "Cnr New England Hway & 4 Mile Creek Rd East Maitland NSW 2323",
    "state": "NSW"
  },
  {
    "lat": "-33.82494",
    "lng": "151.234109",
    "id": 437068,
    "name": "Honeysuckle Garden Centre",
    "description": "Honeysuckle Garden Centre",
    "address": "500 Military Rd Mosman NSW 2088",
    "state": "NSW"
  },
  {
    "lat": "-27.12348",
    "lng": "152.324032",
    "id": 437071,
    "name": "Jackpot Nursery 5423 0169",
    "description": "Jackpot Nursery",
    "address": "82 Wells Station Rd Toogoolawah QLD 4313",
    "state": "QLD"
  },
  {
    "lat": "-33.71831",
    "lng": "151.297698",
    "id": 437072,
    "name": "JBH Fencing & Landscape Supplies",
    "description": "JBH Fencing & Landscape Supplies",
    "address": "Pittwater Rd Narrabeen NSW 2101",
    "state": "NSW"
  },
  {
    "lat": "-33.673235",
    "lng": "151.309639",
    "id": 437073,
    "name": "Johnson Bros Mona Vale Mitre 10",
    "description": "Johnson Bros Mona Vale Mitre 10",
    "address": "51 bassett st mona vale NSW 2103",
    "state": "NSW"
  },
  {
    "lat": "-26.945104",
    "lng": "152.565116",
    "id": 437075,
    "name": "Kilcoy Plants and Garden Supplies 0438927964",
    "description": "Kilcoy Plants and Garden Supplies",
    "address": "27 Mary Street Kilcoy QLD 4515",
    "state": "QLD"
  },
  {
    "lat": "-33.735378",
    "lng": "150.612443",
    "id": 437076,
    "name": "Lower Mountains Landscape Supplies",
    "description": "Lower Mountains Landscape Supplies",
    "address": "22 Attunga Rd Blaxland NSW 2774",
    "state": "NSW"
  },
  {
    "lat": "-32.247209",
    "lng": "148.630494",
    "id": 437078,
    "name": "Magnolia Nursery & Little Garden Shop",
    "description": "Magnolia Nursery & Little Garden Shop",
    "address": "73 Wheelers Lane Dubbo NSW 2803",
    "state": "NSW"
  },
  {
    "lat": "-32.964543",
    "lng": "151.656327",
    "id": 437080,
    "name": "Mitre 10 Beveridge",
    "description": "Mitre 10 Beveridge",
    "address": "371 Hillsborough Rd Warners Bay NSW 2282",
    "state": "NSW"
  },
  {
    "lat": "-33.635384",
    "lng": "150.284278",
    "id": 437081,
    "name": "Mitre 10 Blackheath",
    "description": "Mitre 10 Blackheath",
    "address": "125 station st blackheath NSW 2785",
    "state": "NSW"
  },
  {
    "lat": "-38.027996",
    "lng": "145.1312",
    "id": 437082,
    "name": "Mitre 10 Chelsea",
    "description": "Mitre 10 Chelsea",
    "address": "Springvale Road & Wells Rd chelsea heights VIC 3196",
    "state": "VIC"
  },
  {
    "lat": "-26.527639",
    "lng": "153.08933",
    "id": 437084,
    "name": "Mitre 10 Coolum Beach",
    "description": "Mitre 10 Coolum Beach",
    "address": "14 William Street Coolum Beach QLD 4573",
    "state": "QLD"
  },
  {
    "lat": "-38.163221",
    "lng": "144.355037",
    "id": 437085,
    "name": "Mitre 10 Faggs South Geelong",
    "description": "Mitre 10 Faggs South Geelong",
    "address": "1-9 Barwon Terrace South Geelong VIC 3220",
    "state": "VIC"
  },
  {
    "lat": "-34.90642",
    "lng": "138.523941",
    "id": 437086,
    "name": "Mitre 10 Findon",
    "description": "Mitre 10 Findon",
    "address": "374 grange rd kidman park SA 5025",
    "state": "SA"
  },
  {
    "lat": "-38.155254",
    "lng": "145.166586",
    "id": 437087,
    "name": "Mitre 10 Frankston",
    "description": "Mitre 10 Frankston",
    "address": "336 Cranbourne Rd frankston VIC 3199",
    "state": "VIC"
  },
  {
    "lat": "-34.889883",
    "lng": "138.656602",
    "id": 437088,
    "name": "Mitre 10 Glynde",
    "description": "Mitre 10 Glynde",
    "address": "8 Glynburn Rd Hectorville SA 5073",
    "state": "SA"
  },
  {
    "lat": "-33.474084",
    "lng": "151.394603",
    "id": 437089,
    "name": "Mitre 10 Kincumber",
    "description": "Mitre 10 Kincumber",
    "address": "Cnr Empire Bay Dve & Kerta Rd Kincumber NSW 2251",
    "state": "NSW"
  },
  {
    "lat": "-27.506289",
    "lng": "152.939158",
    "id": 437091,
    "name": "Mitre 10 Lewis Bros 3878 3700",
    "description": "Mitre 10 Lewis Bros",
    "address": "Shop 15 Kenmore Village Centre 9 Brookfield Rd Kenmore QLD 4069",
    "state": "QLD"
  },
  {
    "lat": "-27.657324",
    "lng": "153.169597",
    "id": 437092,
    "name": "Mitre 10 Loganholme",
    "description": "Mitre 10 Loganholme",
    "address": "Shop 5A Home Centre Leda Drive Shailer Park QLD 4128",
    "state": "QLD"
  },
  {
    "lat": "-33.959309",
    "lng": "151.063246",
    "id": 437094,
    "name": "Mitre 10 Peakhurst 9533 5549",
    "description": "Mitre 10 Peakhurst",
    "address": "695 Forest Rd Peakhurst NSW 2210",
    "state": "NSW"
  },
  {
    "lat": "-38.226798",
    "lng": "144.541693",
    "id": 437096,
    "name": "Mitre 10 Wallington",
    "description": "Mitre 10 Wallington",
    "address": "365 grubb rd wallington VIC 3222",
    "state": "VIC"
  },
  {
    "lat": "-33.399275",
    "lng": "151.343023",
    "id": 437098,
    "name": "Narara Valley Nursery",
    "description": "Narara Valley Nursery",
    "address": "2 Manns Rd Gosford NSW 2250",
    "state": "NSW"
  },
  {
    "lat": "-33.689458",
    "lng": "151.270531",
    "id": 437099,
    "name": "New Leaf Nursery 9913 3709",
    "description": "New Leaf Nursery",
    "address": "224 Powderworks Rd Ingleside NSW 2101",
    "state": "NSW"
  },
  {
    "lat": "-34.924273",
    "lng": "138.640932",
    "id": 437102,
    "name": "Norwood Garden Centre",
    "description": "Norwood Garden Centre",
    "address": "299 Portrush Rd Norwood SA 5067",
    "state": "SA"
  },
  {
    "lat": "-38.201809",
    "lng": "145.225585",
    "id": 437104,
    "name": "Pearcedale Garden Centre",
    "description": "Pearcedale Garden Centre",
    "address": "Cnr Middle Rd & Baxter Tooradin Rd Pearcedale VIC 3912",
    "state": "VIC"
  },
  {
    "lat": "-37.893556",
    "lng": "144.674511",
    "id": 437106,
    "name": "Plants Plus - Grevillea Nursery",
    "description": "Plants Plus - Grevillea Nursery",
    "address": "63\/65 Railway Ave werribee VIC 3030",
    "state": "VIC"
  },
  {
    "lat": "-32.991895",
    "lng": "151.703098",
    "id": 437108,
    "name": "Poppys",
    "description": "Poppys",
    "address": "83 oakdale rd gateshead NSW 2290",
    "state": "NSW"
  },
  {
    "lat": "-37.650227",
    "lng": "145.11815",
    "id": 437109,
    "name": "Rivers of Yarrambat",
    "description": "Rivers of Yarrambat",
    "address": "28 kurrak rd yarrambat VIC 3091",
    "state": "VIC"
  },
  {
    "lat": "-35.105808",
    "lng": "150.623631",
    "id": 437111,
    "name": "Sanctuary Point Garden Centre",
    "description": "Sanctuary Point Garden Centre",
    "address": "118 macleans point rd sanctuary point NSW 2540",
    "state": "NSW"
  },
  {
    "lat": "-28.79597",
    "lng": "153.593409",
    "id": 437112,
    "name": "Seed & Husk",
    "description": "Seed & Husk",
    "address": "Shop 6\/68 Ballina St Lennox Head NSW 2478",
    "state": "NSW"
  },
  {
    "lat": "-34.839246",
    "lng": "138.4886",
    "id": 437113,
    "name": "Semaphore Pets",
    "description": "Semaphore Pets",
    "address": "119 Semaphore Rd Semaphore SA 5019",
    "state": "SA"
  },
  {
    "lat": "-33.78518",
    "lng": "151.138478",
    "id": 437114,
    "name": "Sherringhams N. Ryde 9888 3133 ",
    "description": "Sherringhams North Ryde",
    "address": "Lot 1 Wicks rd north ryde NSW 2113",
    "state": "NSW"
  },
  {
    "lat": "-33.694186",
    "lng": "151.218641",
    "id": 437115,
    "name": "ANL Sherringhams Terrey Hills 9485 0229",
    "description": "Sherringhams Terrey Hills",
    "address": "315 Mona Vale Rd Terrey Hills NSW 2084",
    "state": "NSW"
  },
  {
    "lat": "-33.681783",
    "lng": "150.593847",
    "id": 437117,
    "name": "spring wood garden centre",
    "description": "spring wood garden centre",
    "address": "216 hawkesbury rd winmalee NSW 2777",
    "state": "NSW"
  },
  {
    "lat": "-27.599923",
    "lng": "151.942559",
    "id": 437118,
    "name": "Springs Garden World 4636 8484",
    "description": "Springs Garden World",
    "address": "333 Spring St Toowoomba QLD 4350",
    "state": "QLD"
  },
  {
    "lat": "-35.305376",
    "lng": "149.178092",
    "id": 437119,
    "name": "Stonehenge Beltana",
    "description": "Stonehenge Beltana",
    "address": "8 Beltana Rd Pialligo ACT 2621",
    "state": "ACT"
  },
  {
    "lat": "-37.582071",
    "lng": "144.724931",
    "id": 437120,
    "name": "Sunbury Sand and Soil",
    "description": "Sunbury Sand and Soil",
    "address": "63 Horne St Sunbury VIC 3429",
    "state": "VIC"
  },
  {
    "lat": "-33.783305",
    "lng": "151.058676",
    "id": 437122,
    "name": "Swanes Carlingford 9871 1699",
    "description": "Swanes Carlingford",
    "address": "237 Marsden Rd Carlingford NSW 2118",
    "state": "NSW"
  },
  {
    "lat": "-33.673449",
    "lng": "151.030575",
    "id": 437123,
    "name": "Swanes Dural",
    "description": "Swanes Dural",
    "address": "490 Galston Rd Dural NSW 2158",
    "state": "NSW"
  },
  {
    "lat": "-35.304787",
    "lng": "149.095569",
    "id": 437125,
    "name": "The Heritage Nursery",
    "description": "The Heritage Nursery",
    "address": "Banks St Yarralumla ACT 2600",
    "state": "ACT"
  },
  {
    "lat": "-27.558406",
    "lng": "151.90949",
    "id": 437128,
    "name": "True Blue Garden Centre 4659 0311",
    "description": "True Blue Garden Centre",
    "address": "127 Hursley Road Toowoomba QLD 4350",
    "state": "QLD"
  },
  {
    "lat": "-27.523231",
    "lng": "153.046861",
    "id": 437129,
    "name": "True Value Wellers Hill",
    "description": "True Value Wellers Hill",
    "address": "1 Denham Terrace Tarragindi QLD 4121",
    "state": "QLD"
  },
  {
    "lat": "-37.745052",
    "lng": "144.964275",
    "id": 437130,
    "name": "Vasilis Garden",
    "description": "Vasilis Garden",
    "address": "21~25 Munro St Coburg VIC 3058",
    "state": "VIC"
  },
  {
    "lat": "-33.620038",
    "lng": "150.277501",
    "id": 437131,
    "name": "Webers Nursery",
    "description": "Webers Nursery",
    "address": "355 great western hwy blackheath NSW 2785",
    "state": "NSW"
  },
  {
    "lat": "-33.174576",
    "lng": "151.480522",
    "id": 437132,
    "name": "Wyee Nursery",
    "description": "Wyee Nursery",
    "address": "103 wyee rd wyee NSW 2259",
    "state": "NSW"
  },
  {
    "lat": "-42.8804774",
    "lng": "147.3256632",
    "id": 437134,
    "name": "Teros",
    "description": "Teros",
    "address": "117 Elizabeth St, Hobart, Tasmania, 7000, Australia",
    "state": "TAS"
  },
  {
    "lat": "-34.537204",
    "lng": "150.356306",
    "id": 437135,
    "name": "Mt Murray Nursery",
    "description": "Mt Murray Nursery",
    "address": "LOT 1 Old Dairy Close, Moss Vale, New South Wales, 2577, Australia",
    "state": "NSW"
  },
  {
    "lat": "-32.08328",
    "lng": "115.77127",
    "id": 437136,
    "name": "Nibali Stockfeed (08) 9433 2211",
    "description": "Nabilla Stock Feed",
    "address": "77 Rockingham Rd, Hamilton Hill, Western Australia, 6163, Australia",
    "state": "WA"
  },
  {
    "lat": "-27.4784208",
    "lng": "153.0178662",
    "id": 437137,
    "name": "Mitre10 South Brisbane",
    "description": "Mitre 10 Sth Brisbane",
    "address": "48-50 Cordelia Street, South Brisbane, QLD, 4101, Australia",
    "state": "QLD"
  },
  {
    "lat": "-27.346983",
    "lng": "153.013493",
    "id": 437138,
    "name": "Eden Gardens Brisbane",
    "description": "Eden Gardens Brisbane",
    "address": "1657 Gympie Rd Carseldine Queensland 4034",
    "state": "QLD"
  },
  {
    "lat": "-31.4475991",
    "lng": "152.8949021",
    "id": 437140,
    "name": "Port Garden & Hydroponics (02) 6581 1114",
    "description": "Port Garden & Pet Supplies",
    "address": "4\/171 Lake Road, Port Macquarie, New South Wales, 2444, Australia",
    "state": "NSW"
  },
  {
    "lat": "-37.8383887",
    "lng": "145.2779796",
    "id": 437143,
    "name": "Bayswater Mitre 10",
    "description": "Bayswater Mitre 10",
    "address": "860-862 Mountain Highway, Bayswater, Victoria, 3153, Australia",
    "state": "VIC"
  },
  {
    "lat": "-35.2096658",
    "lng": "149.1448286",
    "id": 437144,
    "name": "Canberra Sand & Gravel - Mitchell Yard",
    "description": "Canberra Sand & Gravel - Mitchell Yard",
    "address": "50 Vicars Street, Mitchell, ACT, 2911, Australia",
    "state": "ACT"
  },
  {
    "lat": "-35.388971",
    "lng": "149.1711388",
    "id": 437145,
    "name": "Canberra Sand & Gravel - Hume Yard",
    "description": "Canberra Sand & Gravel - Hume Yard",
    "address": "4 Johns Pl, Hume ACT 2620",
    "state": "ACT"
  },
  {
    "lat": "-38.376494",
    "lng": "144.807719",
    "id": 437146,
    "name": "C Jennings and Sons",
    "description": "C Jennings and Sons",
    "address": "94 Melbourne Rd, Rye, Victoria, 3941, Australia",
    "state": "VIC"
  },
  {
    "lat": "-37.8735438",
    "lng": "145.2461804",
    "id": 437147,
    "name": "Banksia",
    "address": "530 Burwood Hwy, Wantirna South VIC 3152 tel: 9801 5320",
    "state": "VIC"
  },
  {
    "lat": "-35.9110512",
    "lng": "150.0509893",
    "id": 437148,
    "name": "Oakeshott Supplies",
    "address": "60 Yarragee Road, Moruya, New South Wales, Australia tel 0488080560",
    "state": "NSW"
  },
  {
    "lat": "-35.2139716",
    "lng": "148.9883514",
    "id": 437149,
    "name": "Canberra Sand & Gravel - Holt Yard tel 6255 1995",
    "address": "Parkwood Road, Holt, ACT, 2615",
    "state": "ACT"
  },
  {
    "lat": "-26.7156856",
    "lng": "153.0515019",
    "id": 437150,
    "name": "T & G Sand and Gravel SIPPY DOWNS",
    "address": "5 Sippy Downs Drive, Sippy Downs, QLD, 4556, Australia",
    "state": "QLD"
  },
  {
    "lat": "-32.2433977",
    "lng": "148.6032341",
    "id": 437151,
    "name": "mitre 10 dubbo",
    "address": "64-70 Macquarie St, Dubbo, NSW, 2830, Australia",
    "state": "NSW"
  },
  {
    "lat": "-33.7417112",
    "lng": "151.0424914",
    "id": 437152,
    "name": "PlantsPlus Cumberland ",
    "address": "95 Castle Hill Rd, West Pennant Hills, New South Wales, Australia",
    "state": "NSW"
  },
  {
    "lat": "-33.6774481",
    "lng": "151.1117567",
    "id": 437153,
    "name": "Four Seasons Mt Colah 9477 1222",
    "address": "525 Pacific Hwy, Mount Colah, NSW, 2079, Australia",
    "state": "NSW"
  },
  {
    "lat": "-33.717882",
    "lng": "151.215529",
    "id": 437154,
    "name": "Four Seasons Belrose 9450 1606",
    "address": "200 Forest Way, Belrose, NSW, 2085, Australia",
    "state": "NSW"
  },
  {
    "lat": "-31.9191788",
    "lng": "115.8890973",
    "id": 437155,
    "name": "Beaufort Garden Centre 0432925104",
    "address": "944 Beaufort Street, Inglewood, Western Australia, Australia",
    "state": "WA"
  },
  {
    "lat": "-32.7579649",
    "lng": "151.7450683",
    "id": 437158,
    "name": "Raymonds Warehouse 4983 2803",
    "address": "2a Kangaroo St, Raymond Terrace, New South Wales, Australia",
    "state": "NSW"
  },
  {
    "lat": "-26.7922779",
    "lng": "153.1124818",
    "id": 437159,
    "name": "Defined Style 07 3171 3835",
    "address": "159 Mark Road East, Caloundra West, Queensland, Australia",
    "state": "QLD"
  },
  {
    "lat": "-33.9029451",
    "lng": "151.1797167",
    "id": 437160,
    "name": "Newtown Garden Market 9516 4044",
    "address": "538 King St, Newtown, New South Wales, Australia",
    "state": "NSW"
  },
  {
    "lat": "-37.7825892",
    "lng": "144.98428",
    "id": 437161,
    "name": "Northroy Nursery 9486 7544",
    "address": "257-261 St Georges Rd, Fitzroy North, Victoria, Australia",
    "state": "VIC"
  },
  {
    "lat": "-35.1279067",
    "lng": "147.4296623",
    "id": 437162,
    "name": "Gardeners Studio 6922 7513",
    "address": "3871 Sturt Hwy, Gumly Gumly, New South Wales, Australia",
    "state": "NSW"
  },
  {
    "lat": "-23.6933144",
    "lng": "133.87579",
    "id": 437163,
    "name": "Home Timber Alice Springs 08 89 522 488",
    "address": "11 Smith Street, Alice Springs, Northern Territory, Australia",
    "state": "NT"
  },
  {
    "lat": "-35.519513",
    "lng": "138.6266086",
    "id": 437164,
    "name": "Morgan Park Garden Centre 08 8552 7866",
    "address": "66 Welch Road, Victor Harbor - Goolwa, South Australia, Australia",
    "state": "SA"
  },
  {
    "lat": "-34.860658",
    "lng": "138.5922209",
    "id": 437165,
    "name": "Randalls Hardware 8262 6939",
    "address": "440 Prospect Rd, Kilburn, SA, 5084, Australia",
    "state": "SA"
  },
  {
    "lat": "-35.2590984",
    "lng": "138.8969075",
    "id": 437166,
    "name": "Strathalbyn Mitre10 8536 2065",
    "address": "6 South Terrace, Strathalbyn, SA, 5255, Australia",
    "state": "SA"
  },
  {
    "lat": "-31.8908667",
    "lng": "115.822683",
    "id": 437168,
    "name": "Waldecks Stirling - 9254 6730",
    "address": "169 Hamilton Street, Stirling, Western Australia, Australia",
    "state": "WA"
  },
  {
    "lat": "-31.8185038",
    "lng": "115.8198808",
    "id": 437169,
    "name": "Waldecks Kingsley - 9309 5088",
    "address": "173 Wanneroo Rd, Kingsley, Western Australia, Australia",
    "state": "WA"
  },
  {
    "lat": "-32.22617",
    "lng": "115.86829",
    "id": 437170,
    "name": "Gardeners Nursery 9419 1523",
    "address": "899 Thomas Rd, Anketell, Western Australia, Australia",
    "state": "WA"
  },
  {
    "lat": "-35.1847181",
    "lng": "138.4862013",
    "id": 437172,
    "name": "Dingo Garden & Tanks 0404 764210",
    "address": "19 Farrow Circuit, Seaford, South Australia, Australia",
    "state": "SA"
  },
  {
    "lat": "-27.2369287",
    "lng": "153.0843003",
    "id": 437173,
    "name": "Redcliffe Garden Centre 3889 3211",
    "address": "47-49 Snook Street, Clontarf, Queensland, Australia",
    "state": "QLD"
  },
  {
    "lat": "-34.7668371",
    "lng": "148.819127",
    "id": 437174,
    "name": "Mayfield Mews 6227 6572",
    "address": "4 Leake Street, Bowning, New South Wales, Australia",
    "state": "NSW"
  },
  {
    "lat": "-37.909732",
    "lng": "145.244354",
    "id": 437175,
    "name": "The Porch 8288 1799",
    "address": "1\/11 Laser Drive, Rowville, Victoria, Australia",
    "state": "VIC"
  },
  {
    "lat": "-26.7069345",
    "lng": "153.0468699",
    "id": 437176,
    "name": "Buderim Landscapes 5445 2173",
    "address": "168 Crosby Hill Rd, Buderim, Queensland, Australia",
    "state": "QLD"
  },
  {
    "lat": "-26.7069345",
    "lng": "153.0468699",
    "id": 437177,
    "name": "Buderim Landscape Centre 5445 2173",
    "address": "168 Crosby Hill Rd, Buderim, Queensland, Australia",
    "state": "QLD"
  },
  {
    "lat": "-24.8442236",
    "lng": "152.4079259",
    "id": 437178,
    "name": "Boylans 4159 3281",
    "address": "853 Burnett Heads Road, Bundaberg, Queensland, Australia",
    "state": "QLD"
  },
  {
    "lat": "-33.636213",
    "lng": "151.328144",
    "id": 437179,
    "name": "Avalon MitreTen 9918 3315",
    "address": "49 Avalon Parade, Avalon Beach, New South Wales, Australia"
  },
  {
    "lat": "-28.3334363",
    "lng": "153.4159885",
    "id": 437180,
    "name": "SoiLife Aust (02) 6672 5309",
    "address": "87 Quarry Rd, South Murwillumbah, New South Wales, Australia"
  },
  {
    "lat": "-37.9320896",
    "lng": "145.4411831",
    "id": 437182,
    "name": "Mitre 10 Emerald Co-Op 5968 3800",
    "address": "227-287 Main St, Emerald, Victoria, Australia",
    "state": "VIC"
  },
  {
    "lat": "-28.7994175",
    "lng": "153.2655435",
    "id": 437184,
    "name": "AJ Magnay Hardware 6621 5549",
    "address": "Macaulay Street, North Lismore, New South Wales, Australia",
    "state": "NSW"
  },
  {
    "lat": "-32.0123818",
    "lng": "115.9168583",
    "id": 437185,
    "name": "Waldecks Bentley 9458 5944",
    "address": "75 Manning Road, Bentley, Western Australia, Australia",
    "state": "WA"
  },
  {
    "lat": "-32.044685",
    "lng": "115.81617559999995",
    "id": 437186,
    "name": "Waldecks Melville 9330 6970",
    "address": "116 North Lake Road, Myaree, Western Australia, Australia",
    "state": "WA",
    "postal": "6154"
  },
  {
    "lat": "-32.085255",
    "lng": "115.94780000000003",
    "id": 556886,
    "name": "Aquaponics WA \/ Hydroponics Xpress",
    "phone": "1800 640 222",
    "email": "info@hydroponicxpress.com.au",
    "address": "295 Warton Road",
    "country": "Australia",
    "state": "Western Australia",
    "city": "295 Warton Road Canning Vale",
    "postal": "6155"
  },
  {
    "lat": "-27.4427187",
    "lng": "153.02807280000002",
    "id": 556887,
    "name": "City Farm Nursery",
    "email": "nursery@nscf.org.au",
    "web": "http:\/\/www.nscf.org.au\/city-farm-nursery-brisbane\/",
    "webdisplay": "nscf.org.au\/city-farm-nursery-brisbane",
    "address": "16 Victoria St",
    "country": "Australia",
    "state": "Queensland",
    "city": "Windsor",
    "postal": "4030"
  },
  {
    "lat": "-31.4812962",
    "lng": "118.28233820000003",
    "id": 556889,
    "name": "Two Dogs Hardware ",
    "phone": "90141078",
    "email": "twodogshardware@westnet.com.au",
    "web": "http:\/\/vegepod.com.au",
    "webdisplay": "vegepod.com.au",
    "address": "112 Barrack St",
    "country": "Australia",
    "state": "Western Australia",
    "city": "Merridin",
    "postal": "6415"
  },
  {
    "lat": "-37.996751",
    "lng": "145.190837",
    "id": 556890,
    "name": "Greenlife Gardens",
    "phone": "9798 2100",
    "email": "willp@summit.com.au",
    "address": "100 Kirkham Road West",
    "country": "Australia",
    "state": "Western Australia",
    "city": "Keysborough",
    "postal": "3173"
  },
  {
    "lat": "-27.5524128",
    "lng": "151.95512310000004",
    "id": 559226,
    "name": "BMS Mitre 10 Ruthven St",
    "phone": "4659 3600",
    "address": "252 Ruthven Street",
    "country": "Australia",
    "state": "Queensland",
    "city": "Toowoomba"
  },
  {
    "lat": "-27.5486774",
    "lng": "151.90218019999998",
    "id": 559227,
    "name": "BMS Mitre 10 Carrington Rd  4659 3200",
    "phone": "4659 3200",
    "address": "1-3 Carrington Rd ",
    "country": "Australia",
    "state": "Queensland",
    "city": "Toowoomba"
  },
  {
    "lat": "-27.5918056",
    "lng": "151.93510089999995",
    "id": 559228,
    "name": "BMS Mitre 10  Stenner St 4659 3400",
    "phone": "4659 3400",
    "address": "450 Stenner St",
    "country": "Australia",
    "state": "Queensland",
    "city": "Toowoomba"
  },
  {
    "lat": "-32.8426414",
    "lng": "115.92194010000003",
    "id": 560827,
    "name": "Waroona Home Timber 08 98733 1228",
    "phone": "08 9733 1713",
    "address": "60 Southwest Highway",
    "country": "Australia",
    "state": "Western Australia",
    "city": "Waroona"
  },
  {
    "lat": "-32.62796",
    "lng": "115.87483999999995",
    "id": 560828,
    "name": "Tuckeys Mitre 10  - 95311473",
    "address": "19 George Street",
    "country": "Australia",
    "state": "Western Australia",
    "city": "Pinjarra"
  },
  {
    "lat": "-35.1191275",
    "lng": "139.2767447",
    "id": 595278,
    "name": "Murray Bridge Mitre 10  8532 1673",
    "address": "2 Sixth St",
    "country": "Australia",
    "state": "South Australia",
    "city": "Murray Bridge",
    "postal": "5253"
  },
  {
    "lat": "-27.1965688",
    "lng": "152.9847449",
    "id": 595279,
    "name": "Millers Mitre 10  3888-0177",
    "address": "Old Gympie Rd ",
    "country": "Australia",
    "state": "Queensland",
    "city": "Narangbar",
    "postal": "4504"
  },
  {
    "lat": "-27.3712159",
    "lng": "152.88678189999996",
    "id": 596216,
    "name": "Samford Valley Garden Centre 3289 3577",
    "address": "27 main street",
    "country": "Australia",
    "state": "Queensland",
    "city": "Samford",
    "postal": "4520"
  },
  {
    "lat": "-27.7240991",
    "lng": "153.21460890000003",
    "id": 596217,
    "name": "Mega Mitre 10 Beenleigh  3441-9500",
    "address": "204 main street",
    "country": "Australia",
    "state": "Queensland",
    "city": "beenleigh",
    "postal": "4207"
  },
  {
    "lat": "-34.6177758",
    "lng": "138.74258570000006",
    "id": 622656,
    "name": "Vadoulis Garden Centre 8522 3400",
    "address": "554-556 Main North Road",
    "country": "Australia",
    "state": "South Australia",
    "city": "gawler",
    "postal": "5118"
  },
  {
    "lat": "-34.76984710000001",
    "lng": "137.59781050000004",
    "id": 622712,
    "name": "YorKreation Garden Centre 8853 2844",
    "phone": "8853 2844",
    "address": "14 Third Street",
    "country": "Australia",
    "state": "South Australia",
    "city": "Minlaton",
    "postal": "5575"
  },
  {
    "lat": "-34.9787397",
    "lng": "138.53756709999993",
    "id": 622953,
    "name": "Olivers Pets and Plants (08) 8377 0223",
    "address": "88 Morphett Road",
    "country": "Australia",
    "state": "South Australia",
    "city": "Glenowrie",
    "postal": "5044"
  },
  {
    "lat": "-35.0069708",
    "lng": "138.72026270000003",
    "id": 622954,
    "name": "Cleveland Nursery 8339 1595",
    "address": "91A Mount Barker Rd",
    "country": "Australia",
    "state": "South Australia",
    "city": "Stirling"
  },
  {
    "lat": "-32.2389903",
    "lng": "115.80095610000001",
    "id": 622955,
    "name": "Kearns Garden Supplies 9419 4843",
    "address": "22 Seabrook Way",
    "country": "Australia",
    "state": "Western Australia",
    "city": "medina",
    "postal": "6167"
  },
  {
    "lat": "-35.1050255",
    "lng": "138.52723160000005",
    "id": 622956,
    "name": "Mitre 10 Flinders 8381 5555",
    "address": "Main S Rd & Sherrifs Rd",
    "country": "Australia",
    "state": "South Australia",
    "city": "Reynella",
    "postal": "5161"
  },
  {
    "lat": "-27.5500315",
    "lng": "153.19465100000002",
    "id": 658287,
    "name": "Capalaba Nursery 3390 3466",
    "address": "308 Mount Cotton Road",
    "country": "Australia",
    "state": "Queensland",
    "city": "Capalaba"
  },
  {
    "lat": "-33.4437418",
    "lng": "149.21252490000006",
    "id": 658288,
    "name": "Millthorpe Nursery",
    "address": "73 eves lane",
    "country": "Australia",
    "state": "New South Wales",
    "city": "millthorpe"
  },
  {
    "lat": "-33.7201755",
    "lng": "151.13152379999997",
    "id": 661160,
    "name": "Honeysuckle Turramurra",
    "phone": "(02) 9487 3888",
    "webdisplay": "vegepod.com.au",
    "address": "45-47 Tennyson Ave",
    "country": "Australia",
    "state": "New South Wales",
    "city": "Turramurra ",
    "postal": "2074"
  },
  {
    "lat": "-24.8664615",
    "lng": "113.68363160000001",
    "id": 661161,
    "name": "Carnarvon Mitre 10",
    "phone": "1800 428 431",
    "web": "http:\/\/vegepod.com.au",
    "webdisplay": "vegepod.com.au",
    "address": "417 Robinson St, ",
    "country": "Australia",
    "state": "Western Australia",
    "city": "Carnarvon ",
    "postal": "6701"
  },
  {
    "lat": "-31.7416232",
    "lng": "115.76075029999993",
    "id": 705948,
    "name": "Richos 4 Hydro",
    "phone": "0415 921 687",
    "web": "http:\/\/vegepod.com.au",
    "webdisplay": "vegepod.com.au",
    "address": "6\/22 Franklin Lane ",
    "country": "Australia",
    "city": "Joondalup",
    "postal": "6027"
  },
  {
    "lat": "-26.686633",
    "lng": "152.95930010000006",
    "id": 776452,
    "name": "The Garden Shed Nursery 0401 541 962",
    "address": "3 Main St",
    "country": "Australia",
    "state": "Queensland",
    "city": "Palmwoods",
    "postal": "4555"
  },
  {
    "lat": "-27.5194303",
    "lng": "152.9225685",
    "id": 776453,
    "name": "Brookfield Garden Centre 3878 7739",
    "address": "2371 Moggill Rd",
    "country": "Australia",
    "state": "Queensland",
    "city": "brookfield"
  },
  {
    "lat": "-35.921459",
    "lng": "145.63803499999995",
    "id": 968987,
    "name": "Cobram Irrigation - Irrigear (0358711699)",
    "phone": "1800 428 431",
    "email": "paul@vegepod.com.au",
    "web": "http:\/\/vegepod.com.au",
    "webdisplay": "vegepod.com.au",
    "address": "3705 Murray Valley Hwy, Cobram",
    "country": "Australia",
    "state": "Victoria",
    "city": "Cobram",
    "postal": "3644"
  },
  {
    "lat": "-34.8826424",
    "lng": "138.60228670000004",
    "id": 970841,
    "name": "Prospect Home and Garden (08 8344 1181)",
    "phone": "1800 428 431",
    "email": "paul@vegepod.com.au",
    "web": "http:\/\/vegepod.com.au",
    "webdisplay": "vegepod.com.au",
    "address": "190 Main North road",
    "country": "Australia",
    "city": "Prospect",
    "postal": "5082"
  },
  {
    "lat": "-21.165783",
    "lng": "149.127343",
    "id": 1019235,
    "name": "TurfGrass Mackay",
    "phone": "07 4954 5100",
    "address": "5 Te Kowai Foulden Rd, Te Kowai",
    "country": "Australia",
    "state": "Queensland",
    "city": "Te Kowai",
    "postal": "4740"
  },
  {
    "lat": "-34.0350519",
    "lng": "151.1003508",
    "id": 1030650,
    "name": "GRO Edens Miranda",
    "phone": "9491 9900",
    "address": "Westfield Miranda. Level 2, Shop 2113, ",
    "city": "Miranda"
  },
  {
    "lat": "-30.9084321",
    "lng": "153.03943500000003",
    "id": 1087306,
    "name": "SWR Timber and Building Supplies",
    "address": "22-24 FREDERICK KELLY STREET",
    "country": "Australia",
    "city": "South west rocks",
    "postal": "2431"
  },
  {
    "lat": "-20.2971656",
    "lng": "148.6713042",
    "id": 1153230,
    "name": "Whitpro",
    "phone": "0412137337",
    "address": "1697 Shute Harbour Rd",
    "city": "cannonvale",
    "postal": "4802"
  },
  {
    "lat": "-29.4525307",
    "lng": "149.84585820000007",
    "id": 1153231,
    "name": "The Fork & Spade Nursery",
    "phone": "67521939",
    "address": "Mungindi Road",
    "city": "Moree",
    "postal": "2400"
  },
  {
    "lat": "-28.5124394",
    "lng": "150.29088969999998",
    "id": 1153232,
    "name": "Leichhardt Garden & Landscape Centre",
    "phone": "0427710526",
    "address": "Cnr Liechhardt Hwy & Polo Rd",
    "city": "Goondiwindi",
    "postal": "4390"
  },
  {
    "lat": "-31.583441",
    "lng": "152.831411",
    "id": 1153233,
    "name": "Bonny Hills Garden Centre",
    "phone": "65855764",
    "address": "1055 Ocean Drive",
    "city": "Bonny Hills",
    "postal": "2445"
  },
  {
    "lat": "-27.6360112",
    "lng": "152.78270799999996",
    "id": 1153234,
    "name": "Ipswich Garden Centre",
    "phone": "32813742",
    "address": "71 Wildey Street",
    "city": "Raceview",
    "postal": "4305"
  },
  {
    "lat": "-29.7035079",
    "lng": "152.93027529999995",
    "id": 1153235,
    "name": "Country Road Nursery",
    "phone": "66433185",
    "address": "Cnr Ryan St & Skinner St",
    "city": "South Grafton"
  },
  {
    "lat": "-30.64724399999999",
    "lng": "152.9983793",
    "id": 1153236,
    "name": "Pelicans Landing Garden Centre",
    "phone": "65694159",
    "address": "2A Riverside Dve",
    "city": "Nambucca heads",
    "postal": "2448"
  },
  {
    "lat": "-31.8726726",
    "lng": "152.36927100000003",
    "id": 1153237,
    "name": "Wingham Nursery and Florist",
    "phone": "65534570",
    "address": "5 William St",
    "city": "Wingham",
    "postal": "2429"
  },
  {
    "lat": "-30.2901132",
    "lng": "153.0873593",
    "id": 1325087,
    "name": "Total Gardens 6651 2002",
    "address": "5 Nelson St Coffs Harbour",
    "country": "Australia",
    "state": "New South Wales"
  },
  {
    "lat": "-27.5727766",
    "lng": "152.85981249999998",
    "id": 1330781,
    "name": "The Moggill Barn 3202 5605",
    "address": "175a Hawkesbury Rd",
    "country": "Australia",
    "state": "Queensland",
    "city": "Moggill"
  },
  {
    "lat": "-17.0859993",
    "lng": "145.7762484",
    "id": 1337878,
    "name": "NQ Rural Supplies (CRT) 4056 1977  ",
    "address": "7-11 Kern St",
    "country": "Australia",
    "state": "Queensland",
    "city": "Gordonvale",
    "postal": "4865"
  },
  {
    "lat": "-34.9203901",
    "lng": "138.64621869999996",
    "id": 1378617,
    "name": "Heyne's Garden Centre  8332 2933",
    "address": "283-289 The Parade",
    "country": "Australia",
    "state": "South Australia",
    "city": "Beulah Park",
    "postal": "5067"
  },
  {
    "lat": "-30.34795849999999",
    "lng": "153.09132160000001",
    "id": 1423797,
    "name": "Coffs Harbour Landscape Centre 6653 1832",
    "address": "621 Hogbin Drive Toormina",
    "country": "Australia",
    "state": "New South Wales",
    "postal": "2452"
  },
  {
    "lat": "-32.1554619",
    "lng": "152.48485989999995",
    "id": 1432954,
    "name": "Lumpy's Nursery & Landscape Yard 6557 6558",
    "address": "27 Champmans Rd, Tuncurry",
    "country": "Australia",
    "state": "New South Wales",
    "postal": "2428"
  },
  {
    "lat": "-37.9529283",
    "lng": "145.01175009999997",
    "id": 1506319,
    "name": "Bay Road   9521 0197 ",
    "address": "112-114 Bay road ",
    "country": "Australia",
    "state": "Victoria",
    "city": "Sandringham",
    "postal": "3191"
  },
  {
    "lat": "-34.1721687",
    "lng": "140.74885319999999",
    "id": 1534062,
    "name": "Dave's Work & Safety Thrifty-link Hardware (08) 8586 6988",
    "address": "42 Renmark Ave, Renmark SA 5341"
  },
  {
    "lat": "-28.5537015",
    "lng": "153.50040839999997",
    "id": 1558992,
    "name": "Mullumbimby Mitre 10 02 66842083",
    "address": "95-101 Stuart St Mullumbimby",
    "country": "Australia",
    "state": "New South Wales",
    "postal": "2482"
  },
  {
    "lat": "-28.1549539",
    "lng": "153.47135830000002",
    "id": 1558993,
    "name": "Currumbin Fair Nursery 07 55987785",
    "address": "15B-17 Bienvenue Drive",
    "address2": "Currumbin Waters",
    "country": "Australia",
    "state": "Queensland",
    "postal": "4223"
  },
  {
    "lat": "-30.4543335",
    "lng": "152.91104829999995",
    "id": 1574950,
    "name": "NORCO Bellingen 6655 9792",
    "address": " 1076 Waterfall Way, Bellingen NSW 2454"
  },
  {
    "lat": "-33.7675742",
    "lng": "151.2660406",
    "id": 1596514,
    "name": "GRO Edens Warringah",
    "address": "Westfield Warringah Mall",
    "country": "Australia",
    "state": "New South Wales",
    "city": "Brookvale",
    "postal": "2100"
  },
  {
    "lat": "-34.767241",
    "lng": "149.698168",
    "id": 1650975,
    "name": "Irrigear Goulburn (02) 4822 0672",
    "address": "4\/110 Hume St, Goulburn NSW 2580"
  },
  {
    "lat": "-34.7883168",
    "lng": "138.71358439999995",
    "id": 1667295,
    "name": "Garden Grove (08) 8251 1111",
    "address": "1150 Golden Grove Rd, Golden Grove SA 5125"
  },
  {
    "lat": "-38.2122046",
    "lng": "146.47935459999997",
    "id": 1871267,
    "name": "Traralgon West Nursery (03) 5174 1666",
    "address": "25 Northern Ave Traralgon VIC 3844"
  },
  {
    "lat": "-34.4449472",
    "lng": "150.4280824",
    "id": 1871270,
    "name": "Welby Garden Centre (02) 4872 1244",
    "address": "Cnr Old Hume Highway & Bendooley Street Welby NSW 2575"
  },
  {
    "lat": "-27.9787746",
    "lng": "153.3832675",
    "id": 1906261,
    "name": "Wana Living (0412 827 021) *by appointment*",
    "address": "1\/7 United Road Ashmore, QLD 4214"
  },
  {
    "lat": "-10.447525",
    "lng": "105.69044899999994",
    "id": 2047677,
    "name": "Christmas Island Hardware 08 9164 8580",
    "address": "Poonsan Rd, Christmas Island, WA, 6798"
  },
  {
    "lat": "-27.5413419",
    "lng": "152.95592209999995",
    "id": 2047681,
    "name": "Gardenwize 07 3712 0352",
    "address": "605 Seventeen Mile Rocks Rd, Seventeen Mile Rocks, QLD 4073"
  },
  {
    "lat": "-27.566934",
    "lng": "153.23736899999994",
    "id": 2437496,
    "name": "Shedland Garden Centre 3206 0922",
    "address": "19-21 Boundary Rd",
    "city": "Thornlands",
    "postal": "4164"
  },
  {
    "lat": "-31.9365343",
    "lng": "141.4783665",
    "id": 2527234,
    "name": "Pots n Plants 8087 1546",
    "address": "720 Williams St Brooken Hill",
    "country": "Australia",
    "state": "New South Wales",
    "postal": "2880"
  }
]